City_ID,City,Lat,Lng,Max Temp,Humidity,Cloudiness,Wind Speed,Country,Date
0,olonkinbyen,70.9221,-8.7187,34.7,83,100,4.76,SJ,1701217555
1,chamical,-30.36,-66.314,87.84,40,11,21.25,AR,1701217556
2,borodino,55.9106,94.8983,-13.85,99,39,1.12,RU,1701217558
3,port-aux-francais,-49.35,70.2167,41.83,98,100,22.15,TF,1701217560
4,albany,42.6001,-73.9662,28.51,73,54,5.99,US,1701217561
5,bethel,41.3712,-73.414,32.2,56,0,12.66,US,1701217563
6,severodvinsk,64.5635,39.8302,21.13,94,100,11.88,RU,1701217565
7,ilulissat,69.2167,-51.1,21.22,49,80,24.16,GL,1701217566
8,ola,59.5833,151.2833,9.39,79,100,8.32,RU,1701217568
9,waitangi,-43.9535,-176.5597,57.81,87,90,4.0,NZ,1701217570
10,onega,63.9061,38.1404,20.61,91,100,10.18,RU,1701217571
11,blackmans bay,-43.0167,147.3167,61.52,66,91,3.0,AU,1701217573
12,whitehorse,60.7161,-135.0538,20.17,79,20,3.44,CA,1701217575
13,huayucachi,-12.1333,-75.2333,55.99,78,92,6.82,PE,1701217576
14,bechar,31.6167,-2.2167,48.52,21,0,3.44,DZ,1701217578
15,shitanjing,39.2342,106.3439,11.61,37,2,1.25,CN,1701217580
16,tazovsky,67.4667,78.7,1.56,96,100,8.43,RU,1701217582
17,tiksi,71.6872,128.8694,1.13,91,98,16.96,RU,1701217583
18,beatrice,40.2681,-96.747,39.27,80,0,4.61,US,1701217585
19,north bend,43.4065,-124.2243,56.07,58,0,0.0,US,1701217587
20,port elizabeth,-33.918,25.5701,62.89,82,20,16.11,ZA,1701217588
21,mount gambier,-37.8333,140.7667,60.3,83,100,14.03,AU,1701217590
22,madagali,10.8902,13.6312,75.33,27,2,4.18,NG,1701217592
23,metropolis,37.1512,-88.732,31.14,61,0,0.0,US,1701217594
24,ironwood,46.4547,-90.171,21.81,67,100,9.22,US,1701217596
25,yellowknife,62.456,-114.3525,12.72,92,100,4.61,CA,1701217597
26,el granada,37.5027,-122.4694,64.85,63,100,12.66,US,1701217599
27,puerto natales,-51.7236,-72.4875,42.37,82,52,1.68,CL,1701217601
28,adamstown,-25.066,-130.1015,73.53,86,62,17.25,PN,1701217602
29,kodiak,57.79,-152.4072,38.71,87,100,4.61,US,1701217404
30,kisiwani,-4.1333,37.95,71.02,92,93,0.89,TZ,1701217607
31,petropavlovsk-kamchatsky,53.0452,158.6483,15.46,86,75,11.18,RU,1701217365
32,karratha,-20.7377,116.8463,80.13,41,0,14.14,AU,1701217333
33,omutinskiy,56.4745,67.6709,27.63,82,80,11.61,RU,1701217612
34,isafjordur,66.0755,-23.124,32.72,88,100,3.27,IS,1701217613
35,hamilton,39.1834,-84.5333,24.24,66,0,5.75,US,1701217615
36,puerto ayora,-0.7393,-90.3518,76.55,90,79,11.01,EC,1701217617
37,jamestown,42.097,-79.2353,27.99,95,100,11.5,US,1701217387
38,bandarbeyla,9.4942,50.8122,78.22,68,96,19.46,SO,1701217620
39,thunder bay,48.4001,-89.3168,19.38,86,100,2.3,CA,1701217458
40,hadibu,12.65,54.0333,77.92,72,100,11.27,YE,1701217623
41,umuarama,-23.7664,-53.325,68.94,96,76,3.76,BR,1701217625
42,guilin,25.2819,110.2864,50.11,68,12,2.17,CN,1701217627
43,longyearbyen,78.2186,15.6401,33.64,86,75,4.61,SJ,1701217629
44,margaret river,-33.95,115.0667,66.85,69,1,4.21,AU,1701217632
45,choele choel,-39.2667,-65.6833,77.4,13,70,17.2,AR,1701217633
46,invercargill,-46.4,168.35,53.02,69,87,11.99,NZ,1701217635
47,dunedin,-45.8742,170.5036,55.8,50,16,7.0,NZ,1701217637
48,saint-philippe,-21.3585,55.7679,72.99,78,39,8.63,RE,1701217639
49,kirakira,-10.4544,161.9205,85.08,74,60,7.94,SB,1701217642
50,bredasdorp,-34.5322,20.0403,59.16,71,25,6.55,ZA,1701217644
51,mercedes,-34.6515,-59.4307,79.86,54,54,9.35,AR,1701217646
52,hermanus,-34.4187,19.2345,63.01,68,67,7.4,ZA,1701217648
53,vorgashor,67.5833,63.95,11.03,90,100,6.62,RU,1701217650
54,wailua homesteads,22.0669,-159.378,79.75,79,75,9.22,US,1701217651
55,polyarnyy,69.1989,33.4478,26.19,90,97,14.29,RU,1701217653
56,grytviken,-54.2811,-36.5092,31.44,72,47,9.28,GS,1701217655
57,rio grande,-32.035,-52.0986,71.71,88,17,15.55,BR,1701217657
58,port mathurin,-19.6833,63.4167,71.69,88,40,0.0,MU,1701217658
59,kuanda,56.3161,116.0806,-6.07,92,100,2.95,RU,1701217660
60,badger,64.8,-147.5333,20.35,87,100,3.44,US,1701217662
61,monticello,45.3055,-93.7941,32.32,71,100,6.91,US,1701217664
62,milazzo,38.2212,15.2383,65.57,64,43,8.99,IT,1701217665
63,serowe,-22.3833,26.7167,74.55,24,55,3.6,BW,1701217667
64,psygansu,43.4194,43.7936,31.55,93,100,0.0,RU,1701217669
65,hotan,37.0997,79.9269,34.92,28,26,2.24,CN,1701217670
66,atafu village,-8.5421,-172.5159,81.12,77,100,8.52,TK,1701217672
67,astrakhan,46.3497,48.0408,35.47,100,100,4.47,RU,1701217674
68,brisas de zicatela,15.8369,-97.0419,82.92,57,40,4.61,MX,1701217675
69,ancud,-41.8697,-73.8203,51.44,87,38,14.05,CL,1701217677
70,pandan,14.0453,124.1694,81.16,87,58,14.12,PH,1701217679
71,moberly,39.4184,-92.4382,32.43,59,0,5.75,US,1701217680
72,iqaluit,63.7506,-68.5145,29.93,92,100,17.27,CA,1701217682
73,ushuaia,-54.8,-68.3,47.82,70,40,14.97,AR,1701217642
74,ribeira grande,38.5167,-28.7,65.77,95,100,8.99,PT,1701217685
75,diedorf,48.35,10.7667,32.13,86,75,8.05,DE,1701217687
76,bichura,50.5881,107.6022,3.65,87,100,5.08,RU,1701217689
77,stanley,54.868,-1.6985,33.53,86,40,6.91,GB,1701217690
78,arraial do cabo,-22.9661,-42.0278,75.16,88,75,16.11,BR,1701217692
79,kerikeri,-35.2268,173.9474,73.9,70,65,1.01,NZ,1701217694
80,durban,-29.8579,31.0292,72.52,72,100,25.66,ZA,1701217623
81,boende,-0.2167,20.8667,71.98,97,100,2.73,CD,1701217697
82,dalhart,36.0595,-102.5133,46.38,39,0,9.22,US,1701217491
83,scottsboro,34.6723,-86.0341,38.52,60,0,4.61,US,1701217701
84,alcala del valle,36.9045,-5.1724,47.37,90,44,2.8,ES,1701217702
85,happy valley-goose bay,53.3168,-60.3315,34.11,93,75,0.0,CA,1701217704
86,colonia,50.9333,6.95,35.85,80,75,9.22,DE,1701217481
87,nuku'alofa,-21.1333,-175.2,84.54,89,20,14.97,TO,1701217707
88,severobaykal'sk,55.65,109.3167,6.51,76,11,5.93,RU,1701217709
89,kankauli,16.2667,73.7,72.32,88,37,3.04,IN,1701217711
90,st. john's,47.5649,-52.7093,45.97,96,100,21.85,CA,1701217642
91,malvan,16.0667,73.4667,75.67,84,36,5.41,IN,1701217714
92,kolonia town,6.964,158.206,77.11,94,100,3.44,FM,1701217716
93,goulburn,-34.75,149.7167,66.78,85,100,4.0,AU,1701217718
94,kisangani,0.5167,25.2,70.3,100,100,1.1,CD,1701217719
95,port lincoln,-34.7333,135.8667,62.11,76,76,14.61,AU,1701217721
96,dubreka,9.7911,-13.5233,78.37,76,65,2.04,GN,1701217723
97,vilyuchinsk,52.9306,158.4028,16.93,71,94,4.45,RU,1701217724
98,west island,-12.1568,96.8225,80.58,65,40,13.8,CC,1701217726
99,sisimiut,66.9395,-53.6735,21.85,65,100,14.56,GL,1701217727
100,vernon,50.2581,-119.2691,36.21,60,22,0.0,CA,1701217729
101,puerto baquerizo moreno,-0.9,-89.6,76.23,78,45,16.82,EC,1701217731
102,kavieng,-2.5744,150.7967,83.88,73,99,7.09,PG,1701217732
103,nacala,-14.5428,40.6728,78.67,85,22,6.64,MZ,1701217734
104,kalix,65.853,23.1565,24.46,81,100,18.88,SE,1701217737
105,papatowai,-46.5619,169.4708,52.45,54,87,13.35,NZ,1701217739
106,saint-jean-de-monts,46.7833,-2.0667,49.78,52,97,3.42,FR,1701217740
107,anadyr,64.75,177.4833,23.5,86,40,6.71,RU,1701217742
108,greenville,35.6127,-77.3663,42.96,53,0,0.0,US,1701217564
109,tekirova,36.5017,30.5272,57.92,68,79,4.14,TR,1701217745
110,antalaha,-14.9003,50.2788,74.43,78,63,3.78,MG,1701217747
111,coahuayana de hidalgo,18.7,-103.6583,80.64,73,100,1.79,MX,1701217748
112,mount isa,-20.7333,139.5,92.97,43,1,10.36,AU,1701217496
113,afaahiti,-17.75,-149.2833,82.27,82,100,21.39,PF,1701217752
114,alice springs,-23.7,133.8833,83.75,26,75,9.22,AU,1701217753
115,tura,25.5198,90.2201,63.5,72,77,3.09,IN,1701217755
116,callao,-12.0667,-77.15,72.72,77,20,16.11,PE,1701217724
117,fortuna,40.5982,-124.1573,58.93,63,0,0.0,US,1701217758
118,iskateley,67.6803,53.1512,1.02,95,100,11.01,RU,1701217760
119,kalmunai,7.4167,81.8167,76.12,88,100,4.25,LK,1701217763
120,castillos,-34.1667,-53.8333,65.77,94,46,11.83,UY,1701217765
121,sakakah,29.9697,40.2064,54.97,48,100,7.29,SA,1701217766
122,claveria,18.6074,121.0832,78.22,90,29,12.73,PH,1701217768
123,port isabel,26.0734,-97.2086,64.47,77,100,11.5,US,1701217770
124,praia da vitoria,38.7333,-27.0667,66.76,94,75,11.32,PT,1701217771
125,penalva,-3.2942,-45.1736,78.66,81,36,5.82,BR,1701217773
126,porto novo,6.4965,2.6036,82.22,87,58,6.58,BJ,1701217774
127,beira,-19.8436,34.8389,72.66,92,52,6.53,MZ,1701217778
128,boguchany,58.3814,97.4531,-1.93,93,98,2.62,RU,1701217779
129,arzgir,45.3728,44.2206,36.7,91,49,8.16,RU,1701217781
130,guerrero negro,27.9769,-114.0611,68.2,58,98,10.98,MX,1701217783
131,oranjemund,-28.55,16.4333,60.44,87,65,21.0,NA,1701217784
132,demba,-5.51,22.2667,67.93,99,100,2.04,CD,1701217788
133,laascaanood,8.4774,47.3597,70.09,66,89,2.46,SO,1701217789
134,uturoa,-16.7333,-151.4333,80.19,80,79,20.67,PF,1701217791
135,flying fish cove,-10.4217,105.6791,78.24,68,87,17.96,CX,1701217792
136,natal,-5.795,-35.2094,75.85,94,40,5.75,BR,1701217794
137,newman,37.3138,-121.0208,67.28,30,4,1.01,US,1701217796
138,catarama,-1.5833,-79.4667,79.83,74,90,5.1,EC,1701217797
139,edinburgh of the seven seas,-37.0676,-12.3116,58.17,82,87,16.73,SH,1701217799
140,sao gabriel da cachoeira,-0.1303,-67.0892,74.16,96,100,0.31,BR,1701217801
141,hawaiian paradise park,19.5933,-154.9731,82.87,72,100,14.97,US,1701217804
142,fale old settlement,-9.3852,-171.2468,82.8,73,100,7.65,TK,1701217807
143,embi,48.8264,58.1442,29.8,79,100,16.89,KZ,1701217809
144,chonchi,-42.6128,-73.8092,52.12,86,100,7.02,CL,1701217811
145,island harbour,50.724,-1.2758,40.93,90,97,7.47,GB,1701217812
146,tual,-5.6667,132.75,83.52,70,100,2.66,ID,1701217814
147,vuyyuru,16.3667,80.85,75.33,94,20,6.91,IN,1701217816
148,lihue,21.9789,-159.3672,80.37,74,75,9.22,US,1701217818
149,akureyri,65.6835,-18.0878,31.93,100,100,0.0,IS,1701217820
150,yima,34.7381,111.8839,43.36,35,100,4.27,CN,1701217821
151,phulera,26.8667,75.2333,60.04,63,99,6.04,IN,1701217823
152,lompoc,34.6391,-120.4579,67.01,56,0,6.91,US,1701217825
153,bilibino,68.0546,166.4372,-27.56,100,100,1.34,RU,1701217827
154,barguzin,53.6167,109.6167,2.26,95,94,1.99,RU,1701217829
155,ath thawrah,35.8469,38.5443,49.26,61,21,8.05,SY,1701217831
156,tsiombe,-25.3,45.4833,72.45,97,22,4.59,MG,1701217833
157,tazacorte,28.629,-17.9293,65.37,84,0,7.0,ES,1701217835
158,punta arenas,-53.15,-70.9167,48.31,49,0,12.66,CL,1701217838
159,newberry,34.2746,-81.6187,42.46,80,1,5.61,US,1701217627
160,noshiro,40.2039,140.0242,38.23,63,100,24.36,JP,1701217842
161,turar ryskulov,42.5333,70.3333,55.76,39,100,6.64,KZ,1701217844
162,kimberley,-28.7323,24.7623,69.49,32,100,4.61,ZA,1701217846
163,millington,35.3415,-89.8973,39.7,64,0,0.0,US,1701217848
164,paita,-5.0892,-81.1144,69.93,80,22,15.84,PE,1701217850
165,orsa,54.5153,30.4053,15.04,94,100,8.32,BY,1701217852
166,new norfolk,-42.7826,147.0587,61.72,58,85,7.29,AU,1701217853
167,talnakh,69.4865,88.3972,-10.73,98,33,4.52,RU,1701217855
168,garden city,42.3256,-83.331,26.98,73,75,13.8,US,1701217860
169,enewetak,11.3474,162.3373,82.17,76,100,20.87,MH,1701217862
170,daru,-9.0763,143.2092,87.64,64,69,6.96,PG,1701217864
171,thompson,55.7435,-97.8558,10.56,85,100,2.3,CA,1701217840
172,nova vicosa,-17.8919,-39.3719,76.98,85,16,12.97,BR,1701217869
173,destin,30.3935,-86.4958,53.6,58,0,3.44,US,1701217870
174,marte,12.3611,13.8246,76.73,47,4,10.09,NG,1701217872
175,sandnessjoen,66.0217,12.6316,25.32,68,100,10.98,NO,1701217874
176,lata,40.1629,-8.3327,61.81,97,56,4.59,PT,1701217876
177,sharan,54.8167,54.0,18.32,96,100,6.6,RU,1701217877
178,mata-utu,-13.2816,-176.1745,83.57,78,94,19.15,WF,1701217879
179,valle de la pascua,9.2155,-66.0073,80.76,66,97,7.81,VE,1701217881
180,kapuskasing,49.4169,-82.4331,8.6,85,40,5.75,CA,1701217883
181,anjozorobe,-18.4,47.8667,64.71,79,68,1.68,MG,1701217884
182,keflavik,64.0049,-22.5624,35.51,93,75,10.36,IS,1701217886
183,bardai,11.65,7.2333,72.55,29,13,7.87,NG,1701217888
184,hammerfest,70.6634,23.6821,32.45,69,75,12.66,NO,1701217890
185,laojunmiao,39.8333,97.7333,23.45,58,76,6.29,CN,1701217893
186,chinde,26.8418,88.0763,54.23,64,82,4.16,NP,1701217895
187,georgetown,5.4112,100.3354,78.73,88,20,1.14,MY,1701217818
188,dhidhdhoo,6.8833,73.1,82.96,71,100,4.54,MV,1701217898
189,gillette,44.2911,-105.5022,33.12,56,0,13.8,US,1701217900
190,bikenibeu village,1.3673,173.1241,89.56,66,20,4.61,KI,1701217902
191,halmstad,56.6745,12.8568,19.02,86,75,2.3,SE,1701217905
192,fort bragg,35.139,-79.006,44.15,42,0,3.44,US,1701217907
193,ipora,-16.4419,-51.1178,75.74,64,100,1.79,BR,1701217908
194,mathba,22.2855,89.9629,67.37,70,100,5.28,BD,1701217910
195,conduaga,8.862,117.4893,85.41,64,18,2.46,PH,1701217912
196,corner brook,48.9667,-57.9484,35.76,89,95,12.24,CA,1701217892
197,rongelap,11.1635,166.8941,81.68,77,100,22.68,MH,1701217915
198,sanctuary point,-35.1114,150.629,71.33,89,100,17.0,AU,1701217916
199,sitka,57.0531,-135.33,42.69,75,0,0.0,US,1701217918
200,la ronge,55.1001,-105.2842,34.05,64,0,9.22,CA,1701217920
201,college,64.8569,-147.8028,20.44,79,100,3.44,US,1701217865
202,sarangani,5.4033,125.4636,82.35,80,100,19.77,PH,1701217923
203,al mahwit,15.4701,43.5448,54.68,77,15,2.08,YE,1701217924
204,mejit,10.2753,170.8646,81.18,75,36,18.88,MH,1701217926
205,marat,25.0701,45.4615,61.25,45,9,8.9,SA,1701217928
206,conception bay south,47.4999,-52.9981,45.55,94,100,22.21,CA,1701217929
207,aykhal,66.0,111.5,2.89,94,100,18.03,RU,1701217932
208,karwar,14.8,74.1333,75.87,82,80,5.3,IN,1701217933
209,la'ie,21.6477,-157.9253,82.45,79,33,1.99,US,1701217935
210,xinyuan,37.3,99.0,17.64,35,16,5.3,CN,1701217937
211,knyaze-volkonskoye,48.4642,135.4567,-5.46,92,24,6.73,RU,1701217939
212,udachny,66.4167,112.4,2.44,84,100,22.88,RU,1701217795
213,taoudenni,22.6783,-3.9836,66.85,18,100,7.02,ML,1701217942
214,inebolu,41.9747,33.7608,54.86,58,100,14.72,TR,1701217944
215,northam,51.0333,-4.2167,42.39,95,100,3.02,GB,1701217945
216,kavaratti,10.5669,72.642,83.16,73,100,7.74,IN,1701217947
217,jaguey grande,22.5269,-81.1286,72.37,83,100,9.22,CU,1701217949
218,usinsk,65.9939,57.5281,13.06,89,99,11.99,RU,1701217951
219,tionk essil,12.7856,-16.5217,78.76,72,2,7.45,SN,1701217952
220,mohanpur,28.2667,80.25,62.15,68,41,5.66,IN,1701217954
221,las tablas,7.7667,-80.2833,78.96,87,100,12.57,PA,1701217955
222,tongchuanshi,35.0806,109.0897,33.37,39,100,12.41,CN,1701217957
223,arno,60.1167,18.6333,32.79,88,100,15.75,SE,1701217959
224,harper,4.375,-7.7169,78.75,83,100,4.27,LR,1701217961
225,dawson creek,55.7666,-120.2362,38.84,56,0,19.57,CA,1701217963
226,qaqortoq,60.7167,-46.0333,22.35,63,100,7.99,GL,1701217964
227,ribeira brava,32.65,-17.0667,73.0,80,83,7.4,PT,1701217966
228,plover,44.4564,-89.544,19.15,67,0,7.0,US,1701217968
229,juneau,58.3019,-134.4197,39.2,97,75,0.0,US,1701217809
230,chibougamau,49.9168,-74.3659,17.22,86,100,11.5,CA,1701217913
231,chilliwack,49.1747,-121.9443,41.05,80,100,3.0,CA,1701217972
232,mahina,-17.5065,-149.489,85.77,66,75,6.91,PF,1701217974
233,dakhla,23.6848,-15.958,65.77,70,1,12.48,EH,1701217976
234,mogocha,53.7333,119.7667,-0.24,82,100,3.62,RU,1701217977
235,impfondo,1.6381,18.0667,72.07,98,100,2.59,CG,1701217979
236,griffith,41.5284,-87.4237,20.05,68,0,11.5,US,1701217951
237,nemuro,43.3236,145.575,33.48,59,7,25.75,JP,1701217843
238,alofi,-19.0595,-169.9187,84.09,70,75,10.36,NU,1701217984
239,santa terezinha,-29.9002,-50.0904,67.84,93,100,23.98,BR,1701217985
240,sao jose da coroa grande,-8.8978,-35.1478,77.0,74,14,8.32,BR,1701217989
241,belmonte,-15.8631,-38.8828,76.42,86,1,9.37,BR,1701217990
242,herkimer,43.0256,-74.986,27.81,91,92,11.63,US,1701217992
243,coyhaique,-45.5752,-72.0662,48.15,71,75,5.75,CL,1701217993
244,lushun,38.8,121.2667,26.82,61,62,19.62,CN,1701217995
245,moosinning,48.2833,11.85,32.11,85,75,5.75,DE,1701217998
246,kolpashevo,58.3131,82.9089,11.1,95,97,5.01,RU,1701218000
247,kill devil hills,36.0307,-75.676,44.62,42,0,13.8,US,1701217909
248,phillipsburg,40.6937,-75.1902,31.84,52,6,8.99,US,1701218003
249,foumbot,5.5079,10.6356,65.73,86,52,2.62,CM,1701218005
250,inhambane,-23.865,35.3833,74.3,87,97,8.95,MZ,1701218006
251,papao,-17.75,-149.55,85.68,83,100,24.27,PF,1701218008
252,bengkulu,-3.8004,102.2655,76.42,91,100,2.95,ID,1701218010
253,urengoy,65.9667,78.3667,16.2,95,100,9.91,RU,1701218011
254,mammoth lakes,37.6485,-118.9721,32.72,35,0,8.05,US,1701218013
255,manokwari,-0.8667,134.0833,82.42,72,100,2.62,ID,1701218015
256,eynesil,41.0645,39.1438,51.04,44,100,10.36,TR,1701218016
257,villa huidobro,-34.8383,-64.5869,68.2,92,83,19.86,AR,1701218018
258,chernyshevskiy,63.0128,112.4714,-16.44,93,100,3.4,RU,1701218020
259,lebu,-37.6167,-73.65,52.0,78,0,13.82,CL,1701218021
260,greymouth,-42.4667,171.2,57.45,80,96,7.87,NZ,1701218023
261,pacasmayo,-7.4006,-79.5714,68.36,81,62,14.92,PE,1701218025
262,yaring,6.8662,101.3689,80.29,87,100,15.28,TH,1701218026
263,bubaque,11.2833,-15.8333,82.76,67,0,18.41,GW,1701218028
264,kurchatov,51.6601,35.6521,29.41,96,100,15.35,RU,1701218029
265,horta,38.5333,-28.6333,66.02,96,100,8.01,PT,1701218031
266,north battleford,52.7834,-108.2847,30.29,80,0,3.44,CA,1701217967
267,east london,-33.0153,27.9116,66.04,62,100,23.69,ZA,1701217811
268,charkhi dadri,28.6,76.2667,58.89,71,9,3.58,IN,1701218036
269,hoi an,15.8794,108.335,73.36,90,100,6.58,VN,1701218037
270,carutapera,-1.195,-46.02,77.04,91,2,7.05,BR,1701217965
271,howrah,22.5892,88.3103,71.6,78,20,3.44,IN,1701218040
272,mora,11.0461,14.1401,75.79,27,4,5.68,CM,1701218042
273,kapit,2.0167,112.9333,76.78,94,99,2.01,MY,1701218044
274,cabo san lucas,22.8909,-109.9124,82.71,70,0,4.61,MX,1701217831
275,illizi,26.4833,8.4667,57.0,23,98,3.11,DZ,1701217897
276,basoda,23.85,77.9333,61.03,92,0,2.71,IN,1701218049
277,selfoss,63.9331,-20.9971,32.02,85,100,4.25,IS,1701218050
278,ungsang-nodongjagu,42.3578,130.4622,22.59,43,46,16.8,KP,1701218052
279,bluefields,12.0137,-83.7635,79.14,86,25,9.06,NI,1701218053
280,meads,38.4126,-82.7091,26.42,66,0,1.01,US,1701218055
281,annaba,36.9,7.7667,58.96,82,75,6.91,DZ,1701218057
282,constantia,44.1833,28.65,45.7,83,94,21.36,RO,1701217946
283,susuman,62.7833,148.1667,-15.05,100,100,0.38,RU,1701217858
284,kzyltu,53.6364,72.3414,27.23,81,99,11.07,KZ,1701218062
285,inongo,-1.95,18.2667,71.11,97,96,3.87,CD,1701217768
286,naze,28.3667,129.4833,63.52,54,2,4.43,JP,1701218065
287,saipan,15.1355,145.701,86.7,70,40,17.27,MP,1701218067
288,brazzaville,-4.2658,15.2832,75.51,88,92,1.14,CG,1701218068
289,el soberbio,-27.2985,-54.1988,75.31,99,18,1.83,AR,1701218070
290,oriximina,-1.7656,-55.8661,79.16,75,100,4.81,BR,1701218072
291,berbera,10.4396,45.0143,78.21,72,100,6.53,SO,1701218073
292,lodwar,3.1191,35.5973,82.2,51,43,9.89,KE,1701218075
293,spring creek,40.7266,-115.5859,35.29,70,19,3.67,US,1701218077
294,quellon,-43.1167,-73.6167,51.22,88,100,12.33,CL,1701218078
295,likhoslavl',57.1275,35.464,11.86,98,91,5.12,RU,1701218080
296,marka,1.7159,44.7717,78.67,85,19,11.25,SO,1701218081
297,auna,10.1881,4.7232,77.94,53,15,1.63,NG,1701218083
298,koudougou,12.25,-2.3667,82.8,27,10,7.67,BF,1701218085
299,tangalle,6.024,80.7911,75.36,87,100,3.8,LK,1701218086
300,villa gesell,-37.2639,-56.973,66.31,93,63,19.33,AR,1701218088
301,nuuk,64.1835,-51.7216,36.21,44,100,12.66,GL,1701218090
302,malango,-2.9627,119.9001,75.88,84,100,2.19,ID,1701218091
303,gizo,-8.103,156.8419,83.25,73,100,4.16,SB,1701218093
304,nchelenge,-9.3451,28.734,70.23,89,100,4.59,ZM,1701218094
305,brigantine,39.4101,-74.3646,33.01,54,0,12.66,US,1701218096
306,al jawf,29.5,38.75,54.79,53,100,7.09,SA,1701217932
307,avarua,-21.2078,-159.775,78.85,78,75,17.27,CK,1701218099
308,mersing,2.4312,103.8405,78.71,94,40,4.61,MY,1701218101
309,buala,-8.145,159.5921,84.72,74,100,4.79,SB,1701218103
310,mountain home,43.133,-115.6912,33.28,70,0,8.05,US,1701218092
311,vorkuta,67.5,64.0,12.27,91,100,6.6,RU,1701218106
312,aioun,16.6614,-9.6149,73.74,15,6,9.08,MR,1701217871
313,pacific grove,36.6177,-121.9166,64.08,61,0,8.99,US,1701218112
314,timbiqui,2.7717,-77.6654,76.59,95,100,6.24,CO,1701218113
315,kavarna,43.4333,28.3333,49.57,98,100,20.18,BG,1701218115
316,puri,19.8,85.85,68.52,80,71,6.67,IN,1701218117
317,pemangkat,1.1667,108.9667,81.48,80,41,7.31,ID,1701218118
318,el porvenir,13.7617,-87.3458,78.13,75,67,6.67,HN,1701218122
319,naryshkino,52.9678,35.7268,15.19,92,100,11.1,RU,1701218123
320,ceerigaabo,10.6162,47.368,55.94,32,100,7.31,SO,1701218125
321,guiglo,6.5456,-7.4966,73.02,98,100,2.53,CI,1701218128
322,purcellville,39.1368,-77.7147,28.36,55,40,17.0,US,1701218130
323,volokonovka,50.4827,37.8563,31.33,93,100,12.77,RU,1701218132
324,otaru,43.1894,141.0022,32.58,80,100,26.53,JP,1701218134
325,tahla,34.0485,-4.428,51.33,84,5,2.57,MA,1701218138
326,port blair,11.6667,92.75,82.44,78,75,9.22,IN,1701217992
327,port augusta,-32.5,137.7667,72.27,49,3,15.3,AU,1701218143
328,turpan,42.9333,89.1667,40.32,40,100,2.46,CN,1701218145
329,ouadda,8.0777,22.4007,70.03,37,72,2.77,CF,1701218146
330,az zubayr,30.3945,47.7011,61.0,45,28,12.86,IQ,1701218148
331,moranbah,-22.0016,148.0466,93.22,34,0,12.44,AU,1701218150
332,gwanda,-20.9333,29.0,72.09,33,73,6.11,ZW,1701218151
333,nantucket,41.2835,-70.0995,35.74,46,20,17.27,US,1701218153
334,okhotsk,59.3833,143.3,11.8,92,100,7.18,RU,1701218155
335,darnah,32.767,22.6367,59.45,44,7,27.76,LY,1701218156
336,menongue,-14.6585,17.691,63.45,93,100,4.34,AO,1701218158
337,cheremukhovo,60.3484,59.9851,17.96,96,100,5.01,RU,1701218160
338,yinchuan,38.4681,106.2731,18.63,30,0,6.6,CN,1701218161
339,lampang,18.3333,99.5,64.31,94,43,1.14,TH,1701218163
340,port alfred,-33.5906,26.891,60.19,90,100,4.0,ZA,1701218165
341,araruama,-22.8728,-42.3431,75.25,96,100,13.38,BR,1701218167
342,al ghayzah,16.2079,52.176,75.42,71,100,4.76,YE,1701218168
343,haapsalu,58.9431,23.5414,22.91,89,55,7.54,EE,1701218170
344,flin flon,54.7682,-101.865,33.64,80,100,10.36,CA,1701218172
345,lagoa,39.05,-27.9833,64.2,88,100,5.64,PT,1701218174
346,hasaki,35.7333,140.8333,55.29,50,0,15.03,JP,1701218176
347,castanhal,-1.2939,-47.9264,75.49,84,0,4.07,BR,1701218177
348,okha,53.5739,142.9478,16.54,76,82,8.86,RU,1701218179
349,jaciara,-15.9653,-54.9683,77.76,63,9,4.16,BR,1701218181
350,pamandzi,-12.7967,45.2794,80.38,78,40,3.44,YT,1701218182
351,egersund,58.4513,5.9997,24.08,51,73,4.68,NO,1701218184
352,kalabo,-14.97,22.6814,68.76,79,61,5.3,ZM,1701218186
353,lyakhavichy,53.0388,26.2656,24.01,95,100,12.77,BY,1701218187
354,laguna,38.421,-121.4238,64.06,35,0,6.91,US,1701217905
355,meulaboh,4.1363,96.1285,77.56,88,99,3.09,ID,1701218191
356,broome,42.2506,-75.833,27.9,73,100,10.36,US,1701218192
357,yuzhno-kurilsk,44.0306,145.8556,38.37,74,100,30.71,RU,1701218194
358,saldanha,-33.0117,17.9442,55.45,80,0,14.45,ZA,1701218196
359,niigata,37.9022,139.0236,46.35,81,75,24.16,JP,1701218197
360,ash shihaniyah,25.3686,51.2264,74.82,62,1,11.72,QA,1701218199
361,san juan,-31.5375,-68.5364,76.24,57,1,15.88,AR,1701217935
362,greater sudbury,46.49,-80.99,14.97,91,23,4.38,CA,1701217926
363,tapes,-30.6733,-51.3958,67.62,91,89,22.35,BR,1701218204
364,tarija,-21.5355,-64.7296,75.11,60,40,6.91,BO,1701218205
365,manicore,-5.8092,-61.3003,74.14,93,97,1.07,BR,1701218207
366,zhumadian,32.9794,114.0294,45.72,39,100,16.87,CN,1701217974
367,praia,14.9215,-23.5087,73.94,73,20,5.75,CV,1701218210
368,aasiaat,68.7098,-52.8699,14.97,67,90,19.19,GL,1701218212
369,westport,41.1415,-73.3579,33.78,52,0,16.11,US,1701218040
370,mumford,5.2618,-0.759,78.89,85,94,4.92,GH,1701218215
371,mizan teferi,6.9833,35.5833,61.66,87,62,3.29,ET,1701218217
372,glace bay,46.1969,-59.957,34.97,88,40,5.75,CA,1701218218
373,hithadhoo,-0.6,73.0833,82.54,74,100,9.44,MV,1701218220
374,tebingtinggi,3.3285,99.1625,78.01,91,100,3.53,ID,1701218222
375,kirtland,36.7342,-108.3598,36.7,55,0,0.0,US,1701218223
376,poronaysk,49.2167,143.1167,18.88,83,100,25.84,RU,1701218226
377,hell-ville,-13.4,48.2667,80.17,78,45,4.52,MG,1701218228
378,ketchikan,55.3422,-131.6461,44.58,87,0,0.0,US,1701218230
379,san antonio de pale,-1.4014,5.6325,80.08,80,89,7.23,GQ,1701218231
380,bahcecik,40.6673,29.9149,59.65,48,75,11.5,TR,1701218234
381,haiku-pauwela,20.9219,-156.3051,80.26,78,75,9.22,US,1701218237
382,olyokminsk,60.3736,120.4264,-1.86,92,61,7.38,RU,1701218239
383,wynyard,-41.0,145.7167,63.01,59,100,11.7,AU,1701218240
384,rokytne,51.2796,27.214,28.8,97,100,7.76,UA,1701218242
385,katsuren-haebaru,26.3369,127.8719,71.62,72,20,3.44,JP,1701218243
386,kievka,50.2619,71.5514,37.6,58,100,8.59,KZ,1701218245
387,chonglong,29.7806,104.8522,58.01,75,100,6.51,CN,1701218247
388,santo antonio,-6.3106,-35.4789,75.36,76,90,8.75,BR,1701218249
389,kone,-21.0595,164.8658,84.67,52,100,3.22,NC,1701218250
390,thale,51.75,11.05,31.08,85,100,11.7,DE,1701218252
391,aswan,24.0934,32.907,63.16,45,76,10.0,EG,1701218254
392,yerofey pavlovich,53.9667,121.9667,6.04,65,100,3.62,RU,1701218255
393,bamboo flat,11.7,92.7167,82.49,78,75,9.22,IN,1701218257
394,kurlovo,55.4325,40.4854,11.32,98,66,3.74,RU,1701218000
395,geraldton,-28.7667,114.6,72.01,60,100,12.66,AU,1701218260
396,palikir - national government center,6.9248,158.1611,76.05,94,100,3.44,FM,1701218262
397,iola,37.9245,-95.4,42.85,65,0,0.0,US,1701218264
398,shiqian,27.5225,108.2281,57.99,74,87,2.06,CN,1701218265
399,abbeville,50.1,1.8333,44.56,87,95,8.55,FR,1701218267
400,carnarvon,-24.8667,113.6333,73.0,56,48,13.94,AU,1701218268
401,senanga,-16.1167,23.2667,72.21,65,91,5.46,ZM,1701218270
402,stephenville,32.2207,-98.2023,51.93,46,0,0.0,US,1701218191
403,shenjiamen,29.9576,122.298,62.4,66,38,15.79,CN,1701218273
404,ust-nera,64.5667,143.2,-5.33,98,100,2.35,RU,1701218275
405,belyy yar,53.6039,91.3903,6.69,92,100,2.24,RU,1701218277
406,ar rutbah,33.0381,40.2848,49.41,61,100,7.58,IQ,1701218280
407,dryden,49.7833,-92.7503,17.89,93,100,9.22,CA,1701218281
408,ishigaki,24.3448,124.1572,75.33,69,75,11.5,JP,1701218283
409,itaituba,-4.2761,-55.9836,78.85,75,72,3.09,BR,1701218285
410,vila franca do campo,37.7167,-25.4333,64.81,99,100,6.24,PT,1701218286
411,nova sintra,14.8667,-24.7167,70.93,73,9,11.81,CV,1701218288
412,port saint john's,-31.6229,29.5448,68.11,71,71,18.95,ZA,1701218290
413,kilju,40.9642,129.3278,25.88,25,0,2.62,KP,1701218291
414,arawa,-6.2132,155.5367,89.58,61,100,3.2,PG,1701218293
415,mount pleasant,32.7941,-79.8626,46.54,76,0,0.0,US,1701218295
416,cidade velha,14.9167,-23.6167,73.87,73,20,5.75,CV,1701218297
417,sosnogorsk,63.6023,53.8817,10.54,94,100,5.01,RU,1701218298
418,sao miguel do araguaia,-13.275,-50.1628,79.75,36,0,6.15,BR,1701218300
419,fort st. john,56.2499,-120.8529,37.29,65,20,18.41,CA,1701218129
420,gumdag,39.2061,54.5906,45.63,71,7,13.47,TM,1701218303
421,grand falls-windsor,48.9332,-55.6649,38.5,92,100,1.01,CA,1701218305
422,leninskoye,41.7589,69.3864,57.72,37,100,2.42,KZ,1701218306
423,pop,40.8736,71.1089,43.29,37,99,3.67,UZ,1701218308
424,manga,11.6636,-1.0731,82.94,32,9,6.64,BF,1701218310
425,baykal'sk,51.5058,104.1469,7.99,78,100,5.64,RU,1701218311
426,biloela,-24.4167,150.5,91.11,42,1,13.29,AU,1701218179
427,kilindoni,-7.9139,39.6668,80.49,80,100,9.24,TZ,1701218315
428,zango,13.0515,8.4877,73.0,27,14,7.87,NG,1701218317
429,ridgecrest,35.6225,-117.6709,62.46,22,0,1.99,US,1701218319
430,fisterra,42.9049,-9.2629,62.02,96,100,18.61,ES,1701218322
431,imbituba,-28.24,-48.6703,71.85,94,100,18.45,BR,1701218323
432,pestovo,58.5938,35.8024,16.52,97,92,5.26,RU,1701218325
433,hanzhong,33.0728,107.0303,52.03,56,97,3.02,CN,1701218327
434,amungan,15.3652,119.9582,85.86,62,24,1.72,PH,1701218328
435,korla,41.7597,86.1469,37.45,48,25,7.83,CN,1701218330
436,galesong,-5.3166,119.3661,82.42,67,100,3.36,ID,1701218332
437,luderitz,-26.6481,15.1594,64.6,72,11,22.79,NA,1701218333
438,doetinchem,51.95,6.2833,34.11,93,100,5.01,NL,1701218335
439,lillehammer,61.1146,10.4674,20.03,88,100,9.64,NO,1701218337
440,tromso,69.6496,18.957,30.22,64,0,3.44,NO,1701218338
441,souran,35.2916,36.7488,49.42,64,12,3.62,SY,1701218340
442,minokamo,35.482,137.0217,51.39,55,12,1.9,JP,1701218341
443,san pedro,14.35,121.0167,86.32,77,75,5.01,PH,1701218343
444,mali,12.079,-12.2982,64.2,31,12,2.01,GN,1701218345
445,kapa'a,22.0752,-159.319,82.09,78,75,9.22,US,1701218346
446,at taj,24.2049,23.2857,57.25,34,0,1.99,LY,1701218348
447,yamada,39.4667,141.95,40.55,55,39,8.25,JP,1701218350
448,san luis de la loma,17.2706,-100.8939,79.2,82,65,3.56,MX,1701218351
449,huaraz,-9.5333,-77.5333,56.71,86,100,3.49,PE,1701218218
450,plastun,44.7561,136.2939,12.92,46,100,11.43,RU,1701218354
451,shakiso,5.75,38.9167,53.22,83,9,3.36,ET,1701218356
452,lethem,3.3803,-59.7968,80.4,66,11,6.51,GY,1701218359
453,ardahan,41.1087,42.7022,13.82,84,100,2.93,TR,1701218361
454,tatarsk,55.219,75.9828,22.73,87,100,9.98,RU,1701218363
455,pucallpa,-8.3791,-74.5539,82.44,78,75,10.36,PE,1701218124
456,minot,48.2325,-101.2963,39.42,60,0,18.41,US,1701218366
457,jinchang,38.4953,102.1739,22.19,52,75,4.79,CN,1701218368
458,sodankyla,67.4167,26.6,21.63,88,92,12.24,FI,1701218370
459,marsabit,2.3284,37.9899,66.52,68,79,5.59,KE,1701218371
460,cabedelo,-6.9811,-34.8339,77.67,71,100,11.3,BR,1701218373
461,labrador city,52.9463,-66.9114,19.31,86,75,8.05,CA,1701218375
462,sinop,41.7711,34.8709,39.97,57,100,20.38,TR,1701218365
463,keban,38.7978,38.7336,38.77,53,100,2.82,TR,1701218378
464,zonguldak,41.25,31.8333,44.1,72,99,8.12,TR,1701218379
465,simplicio mendes,-7.8539,-41.9103,77.72,59,25,2.59,BR,1701218381
466,kani keli,-12.9536,45.1033,79.86,77,14,10.0,YT,1701218383
467,aoulef,26.9667,1.0833,61.81,28,0,7.27,DZ,1701218384
468,neyriz,29.1988,54.3278,48.2,51,18,1.14,IR,1701218386
469,tarnobrzeg,50.573,21.6794,27.25,82,100,13.58,PL,1701218388
470,sola,-13.8833,167.55,83.07,84,100,6.91,VU,1701218389
471,fontanelas,38.8472,-9.4372,63.16,97,15,8.5,PT,1701218391
472,sinabang,2.4803,96.3801,80.06,84,100,6.42,ID,1701218393
473,la passe,45.5549,-0.8967,35.83,86,6,4.36,FR,1701218394
474,brookings,44.3114,-96.7984,36.05,66,0,8.05,US,1701218396
475,taroudant,30.4703,-8.877,53.37,83,0,3.51,MA,1701218398
476,sidney,-33.8679,151.2073,76.44,75,75,17.27,AU,1701218375
477,battambang,13.1027,103.1982,71.91,74,100,2.55,KH,1701218401
478,axim,4.8699,-2.2405,78.76,85,32,4.76,GH,1701218402
479,isangel,-19.55,169.2667,82.51,74,75,6.91,VU,1701218404
480,klyuchi,52.2667,79.1667,30.16,72,100,6.96,RU,1701218406
481,ulsteinvik,62.3432,5.8487,27.07,67,100,8.99,NO,1701218408
482,uliastay,47.7417,96.8444,-6.27,72,0,6.04,MN,1701218409
483,sassandra,4.95,-6.0833,77.7,85,23,4.05,CI,1701218411
484,campo largo,-25.4586,-49.5283,68.13,100,100,3.29,BR,1701218413
485,benghazi,32.1167,20.0667,63.72,54,13,17.78,LY,1701218414
486,borogontsy,62.6683,131.1683,-24.47,100,100,1.36,RU,1701218416
487,dambatta,12.433,8.5154,68.11,27,13,7.65,NG,1701218418
488,shimoda,34.6667,138.95,56.1,55,0,29.26,JP,1701218419
489,miri,4.4148,114.0089,77.14,94,20,6.91,MY,1701218300
490,fort mcmurray,56.7268,-111.381,38.71,60,100,8.05,CA,1701218424
491,amga,60.8953,131.9608,-10.03,97,100,2.1,RU,1701218426
492,belaya kholunitsa,58.84,50.8528,15.84,98,100,2.77,RU,1701218428
493,bahadurgarh,28.6833,76.9167,59.11,67,93,4.43,IN,1701218429
494,sabha,27.0377,14.4283,59.47,30,0,9.51,LY,1701218431
495,akrehamn,59.2667,5.1833,28.42,63,40,6.91,NO,1701218433
496,igarka,67.4667,86.5833,-11.97,98,17,5.73,RU,1701218436
497,chifeng,42.2683,118.9636,13.44,36,6,15.97,CN,1701218155
498,maun,-19.9833,23.4167,74.59,52,39,6.76,BW,1701218440
499,ubari,26.5921,12.7805,59.95,30,3,6.78,LY,1701218442
500,kharp,66.8014,65.8081,16.09,95,100,7.9,RU,1701218443
501,nova xavantina,-14.6667,-52.35,82.42,50,81,1.1,BR,1701218445
502,tofol,5.3248,163.0078,82.18,83,100,20.71,FM,1701218449
503,figuig (centre),32.1089,-1.2286,53.83,23,25,2.26,MA,1701218451
504,vila velha,-20.3297,-40.2925,78.75,85,75,6.91,BR,1701218452
505,sayansk,54.1088,102.1648,-8.25,99,21,1.12,RU,1701218454
506,keren,15.7778,38.4581,61.36,84,0,8.16,ER,1701218456
507,utrik,11.2278,169.8474,81.72,77,99,20.42,MH,1701218457
508,hlohovec,48.4317,17.8031,33.55,77,98,15.99,SK,1701218459
509,mogoytuy,51.2833,114.9167,3.56,74,17,12.24,RU,1701218461
510,amos,48.5669,-78.1162,8.65,91,100,8.77,CA,1701218462
511,neiafu,-18.65,-173.9833,84.88,74,20,13.8,TO,1701218464
512,uzhur,55.3036,89.8339,8.46,99,46,5.86,RU,1701218466
513,mount pearl,47.5166,-52.7813,44.94,95,100,21.85,CA,1701218467
514,beyneu,45.3167,55.2,36.66,73,100,9.69,KZ,1701218469
515,harnai,30.1005,67.9374,53.24,34,0,2.71,PK,1701218471
516,lerwick,60.1545,-1.1494,37.4,76,100,21.39,GB,1701218472
517,monterey,36.2505,-121.2516,51.66,59,2,6.85,US,1701218474
518,clarion,41.2148,-79.3853,23.38,76,84,10.49,US,1701218476
519,bodo,67.28,14.405,30.24,64,100,11.5,NO,1701218478
520,bodden town,19.2833,-81.25,82.4,83,20,11.5,KY,1701218480
521,nevel',56.0209,29.9284,7.12,98,100,3.58,RU,1701218481
522,linfen,36.0889,111.5189,36.64,18,79,8.48,CN,1701218483
523,san nicolas,18.1725,120.5953,80.51,83,20,4.61,PH,1701218485
524,palenque,17.5167,-91.9667,71.76,94,100,0.0,MX,1701218487
525,inirida,3.8653,-67.9239,78.64,78,66,1.39,CO,1701218489
526,santiago ixcuintla,21.8167,-105.2167,74.35,67,0,2.48,MX,1701218490
527,tolanaro,-25.0319,46.9987,77.07,78,20,13.8,MG,1701218492
528,ballina,-28.8667,153.5667,79.79,86,98,8.7,AU,1701218496
529,aginskoye,51.1,114.53,3.87,78,22,17.34,RU,1701218499
530,cooper's town,26.8667,-77.5167,71.06,60,100,14.58,BS,1701218501
531,port-vila,-17.7338,168.3219,83.8,74,75,11.5,VU,1701218340
532,mayahi,13.9553,7.6712,75.31,27,76,8.95,NE,1701218505
533,kruisfontein,-34.0033,24.7314,59.31,75,2,20.38,ZA,1701218506
534,kourou,5.1552,-52.6478,80.65,86,16,6.44,GF,1701218508
535,chiredzi,-21.05,31.6667,72.27,34,32,4.88,ZW,1701218510
536,sievi,63.9,24.5,25.75,95,100,10.58,FI,1701218511
537,port macquarie,-31.4333,152.9167,77.9,70,56,16.64,AU,1701218513
538,ludwin,51.3461,22.9058,28.09,100,75,10.36,PL,1701218514
539,el nido,11.1858,119.3956,83.71,78,57,16.96,PH,1701218516
540,nicoya,10.1483,-85.452,76.82,78,100,10.0,CR,1701218518
541,dudinka,69.4058,86.1778,-16.51,100,29,2.21,RU,1701218519
542,krasnaya yaruga,50.8008,35.6583,27.7,92,100,15.64,RU,1701218521
543,maxixe,-23.8597,35.3472,72.88,89,96,7.54,MZ,1701218522
544,acarau,-2.8856,-40.12,79.81,79,79,13.69,BR,1701218524
545,bellaria-igea marina,44.1421,12.47,45.91,90,0,5.75,IT,1701218526
546,wuwei,37.9281,102.6414,23.29,58,7,3.22,CN,1701218527
547,sadri,25.1833,73.4333,60.71,78,0,3.53,IN,1701218529
548,balkanabat,39.5108,54.3671,46.02,76,1,3.6,TM,1701218531
549,walvis bay,-22.9575,14.5053,63.09,85,11,1.97,NA,1701218532
550,kudahuvadhoo,2.6708,72.8944,81.97,77,100,9.13,MV,1701218534
551,masterton,-40.9597,175.6575,51.85,79,100,5.41,NZ,1701218536
552,gasa,31.5,34.4667,59.99,60,100,7.92,PS,1701218293
553,luanco,43.6152,-5.7934,57.02,99,97,6.64,ES,1701218539
554,al 'aziziyah,32.9058,45.0616,55.29,44,96,11.92,IQ,1701218541
555,nar'yan-mar,67.6713,53.087,1.11,95,86,11.01,RU,1701218542
556,kirensk,57.7853,108.1119,-1.75,99,100,2.66,RU,1701218544
557,namsos,64.4662,11.4957,30.25,93,40,2.3,NO,1701218548
558,la paz,-16.5,-68.15,55.38,75,75,9.22,BO,1701218422
559,namibe,-15.1961,12.1522,73.67,80,100,3.4,AO,1701218551
560,goundam,16.4145,-3.6708,73.29,16,0,9.01,ML,1701218553
561,tonghua,41.7201,125.9219,11.97,64,11,11.21,CN,1701218554
562,corinto,37.9407,22.9573,63.9,74,86,5.64,GR,1701218556
563,lev tolstoy,53.2134,39.446,19.78,96,27,7.09,RU,1701218558
564,port-cartier,50.0334,-66.8654,28.51,82,51,11.54,CA,1701218501
565,hilo,19.7297,-155.09,84.27,66,100,14.97,US,1701218561
566,pyin oo lwin,22.0333,96.4667,58.37,85,100,3.31,MM,1701218563
567,puerto aysen,-45.4,-72.7,46.71,99,100,5.93,CL,1701218564
568,el colomo,19.05,-104.25,84.18,67,100,2.42,MX,1701218566
569,berezovyy,51.6667,135.7,4.14,75,30,1.52,RU,1701218568
570,paracuru,-3.41,-39.0306,81.1,80,100,10.8,BR,1701218569
571,oamaru,-45.0784,170.9801,54.97,56,79,10.96,NZ,1701218571
572,portland,45.5234,-122.6762,44.64,65,75,11.01,US,1701218538
573,cururupu,-1.8283,-44.8683,74.68,94,5,3.58,BR,1701218574
574,emerald,-23.5333,148.1667,90.34,52,0,12.39,AU,1701218576
